City_ID,City,Lat,Lng,Max Temp,Humidity,Cloudiness,Wind Speed,Country,Date
0,busselton,-33.65,115.3333,16.5,92,0,5.19,AU,1675789328
1,mehamn,71.0357,27.8492,2.97,65,40,19.03,NO,1675789601
2,massakory,12.996,15.7293,29.26,12,99,4.86,TD,1675789602
3,northam,51.0333,-4.2167,6.81,70,10,1.51,GB,1675789602
4,port hedland,-20.3167,118.5667,28.03,83,5,1.54,AU,1675789603
5,clyde river,70.4692,-68.5914,-30.72,90,100,0.79,CA,1675789603
6,beringovskiy,63.05,179.3167,-28.03,95,100,3.42,RU,1675789602
7,klaksvik,62.2266,-6.589,7.51,81,83,19.86,FO,1675789449
8,dikson,73.5069,80.5464,-28.1,95,81,6.91,RU,1675789426
9,abeokuta,7.15,3.35,33.36,41,99,3.14,NG,1675789376
10,tura,25.5198,90.2201,16.14,45,0,1.71,IN,1675789604
11,albany,42.6001,-73.9662,2.8,46,55,3.58,US,1675789388
12,tete,-16.1564,33.5867,25.93,82,92,1.47,MZ,1675789605
13,hermanus,-34.4187,19.2345,21.56,74,100,6.0,ZA,1675789506
14,ushuaia,-54.8,-68.3,11.81,54,40,5.14,AR,1675789415
15,avera,33.194,-82.5271,18.64,46,67,3.27,US,1675789605
16,atuona,-9.8,-139.0333,25.87,74,6,7.39,PF,1675789374
17,hobart,-42.8794,147.3294,13.92,68,100,3.09,AU,1675789082
18,kapaa,22.0752,-159.319,24.18,92,100,5.14,US,1675789494
19,mataura,-46.1927,168.8643,10.27,66,79,2.86,NZ,1675789352
20,anisoc,1.8658,10.7689,24.07,86,65,1.5,GQ,1675789606
21,vaini,-21.2,-175.2,24.09,100,100,3.09,TO,1675789559
22,lavrentiya,65.5833,-171.0,-25.38,91,100,1.82,RU,1675789607
23,saint george,37.1041,-113.5841,7.36,61,0,2.57,US,1675789321
24,weligama,5.9667,80.4167,24.59,89,19,1.01,LK,1675789608
25,sioux lookout,50.1001,-91.917,-10.35,86,100,4.68,CA,1675789608
26,saskylakh,71.9167,114.0833,-35.02,100,100,1.01,RU,1675789482
27,nakusp,50.2499,-117.8023,3.6,87,100,2.06,CA,1675789398
28,jamestown,42.097,-79.2353,8.34,50,20,8.75,US,1675789526
29,lincoln,40.8,-96.667,6.27,51,0,3.09,US,1675789429
30,bethel,41.3712,-73.414,4.54,36,0,3.09,US,1675789609
31,port elizabeth,-33.918,25.5701,22.4,89,88,1.79,ZA,1675789610
32,barrow,71.2906,-156.7887,-23.99,77,100,4.63,US,1675789487
33,villarrica,-25.75,-56.4333,39.76,17,44,1.68,PY,1675789610
34,victoria,22.2855,114.1577,21.03,91,49,4.92,HK,1675789027
35,cape town,-33.9258,18.4232,22.23,78,20,9.26,ZA,1675789537
36,punta arenas,-53.15,-70.9167,15.06,51,40,4.12,CL,1675789611
37,bubaque,11.2833,-15.8333,24.6,64,38,6.62,GW,1675789611
38,gazanjyk,39.2446,55.5154,11.12,49,90,1.94,TM,1675789612
39,east london,-33.0153,27.9116,23.47,88,99,5.93,ZA,1675789612
40,nandu,22.8525,110.8233,17.98,96,100,1.52,CN,1675789549
41,qaanaaq,77.484,-69.3632,-30.22,69,98,3.13,GL,1675789436
42,radcliff,37.8404,-85.9491,15.93,51,100,7.2,US,1675789613
43,sambava,-14.2667,50.1667,24.89,88,100,3.02,MG,1675789614
44,jibuti,11.5,42.5,22.36,61,13,5.03,DJ,1675789614
45,bluff,-46.6,168.3333,10.45,77,84,12.29,NZ,1675789338
46,newtownards,54.5924,-5.6909,9.18,86,100,3.6,GB,1675789615
47,salisbury,51.0693,-1.7957,7.23,69,0,1.54,GB,1675789615
48,grand gaube,-20.0064,57.6608,26.88,76,24,3.13,MU,1675789616
49,kumluca,36.3703,30.2869,6.28,51,47,4.97,TR,1675789617
50,saint anthony,45.0205,-93.218,0.37,72,0,5.66,US,1675789618
51,chuy,-33.6971,-53.4616,29.56,41,3,4.01,UY,1675789618
52,butaritari,3.0707,172.7902,27.3,80,100,10.18,KI,1675789546
53,saint-francois,46.4154,3.9054,6.69,54,0,2.57,FR,1675789619
54,kavieng,-2.5744,150.7967,26.42,82,100,2.07,PG,1675789620
55,bredasdorp,-34.5322,20.0403,21.57,67,100,5.07,ZA,1675789429
56,cherskiy,68.75,161.3,-35.75,98,100,2.26,RU,1675789620
57,cherepanovo,54.2222,83.381,-14.69,97,98,2.48,RU,1675789621
58,conceicao do araguaia,-8.2578,-49.2647,32.14,56,74,0.58,BR,1675789621
59,ribeira grande,38.5167,-28.7,14.32,54,75,8.23,PT,1675789622
60,alyangula,-13.8483,136.4192,28.11,70,95,2.97,AU,1675789625
61,new norfolk,-42.7826,147.0587,13.72,90,42,1.09,AU,1675789497
62,rikitea,-23.1203,-134.9692,26.04,73,44,5.38,PF,1675789362
63,carnarvon,-24.8667,113.6333,24.79,71,3,9.7,AU,1675789635
64,port alfred,-33.5906,26.891,22.32,89,89,1.79,ZA,1675789637
65,black diamond,47.3087,-122.0032,8.58,87,100,1.34,US,1675789640
66,caravelas,-17.7125,-39.2481,30.83,53,52,5.71,BR,1675789642
67,tual,-5.6667,132.75,27.05,81,100,8.62,ID,1675789644
68,vanavara,60.34,102.2797,-29.63,100,98,1.01,RU,1675789654
69,chapais,49.7834,-74.8492,-6.48,73,100,7.3,CA,1675789655
70,asfi,32.2994,-9.2372,15.16,70,3,4.88,MA,1675789565
71,mangrol,21.1167,70.1167,21.65,78,7,2.61,IN,1675789657
72,fort wellington,6.4,-57.6,26.95,76,46,4.37,GY,1675789658
73,tabou,4.423,-7.3528,28.21,74,89,4.62,CI,1675789658
74,salalah,17.0151,54.0924,25.05,57,0,1.54,OM,1675789658
75,kodiak,57.79,-152.4072,-2.27,69,0,4.63,US,1675789386
76,aklavik,68.2191,-135.0107,-31.0,76,100,2.06,CA,1675789427
77,hamilton,39.1834,-84.5333,14.69,47,100,6.17,US,1675789565
78,jutai,-5.1833,-68.9,27.19,88,68,0.98,BR,1675789659
79,batemans bay,-35.7167,150.1833,19.5,92,100,1.99,AU,1675789626
80,iqaluit,63.7506,-68.5145,-32.95,67,40,2.57,CA,1675789599
81,kamaishi,39.2667,141.8833,2.46,98,100,3.64,JP,1675789660
82,saint-joseph,-21.3667,55.6167,27.21,82,63,6.22,RE,1675789661
83,kamakwie,9.5,-12.2333,36.7,21,70,1.53,SL,1675789662
84,biltine,14.5333,20.9167,28.13,12,20,5.35,TD,1675789662
85,kungurtug,50.5994,97.5228,-23.96,98,56,0.9,RU,1675789663
86,grindavik,63.8424,-22.4338,-2.03,93,75,13.38,IS,1675789664
87,mar del plata,-38.0023,-57.5575,24.37,81,34,5.36,AR,1675789665
88,bluffton,32.2371,-80.8604,21.12,58,0,1.54,US,1675789505
89,ambovombe,-25.1667,46.0833,23.23,88,100,2.22,MG,1675789560
90,puerto ayora,-0.7393,-90.3518,29.98,88,25,4.47,EC,1675789449
91,padang,-0.9492,100.3543,24.62,78,100,2.0,ID,1675789666
92,kikwit,-5.041,18.8162,23.46,79,65,2.03,CD,1675789667
93,tuktoyaktuk,69.4541,-133.0374,-34.0,68,100,0.0,CA,1675789380
94,guerrero negro,27.9769,-114.0611,17.0,28,6,3.42,MX,1675789667
95,sao lourenco da serra,-23.8525,-46.9425,27.22,90,99,1.85,BR,1675789406
96,port hardy,50.6996,-127.4199,5.1,93,75,1.03,CA,1675789668
97,dubbo,-32.25,148.6167,22.07,64,1,5.14,AU,1675789649
98,dingle,10.9995,122.6711,23.25,92,100,3.47,PH,1675789669
99,tuatapere,-46.1333,167.6833,10.31,86,87,4.85,NZ,1675789584
100,castro,-24.7911,-50.0119,26.01,53,65,1.25,BR,1675789383
101,provideniya,64.3833,-173.3,-26.29,93,74,1.54,RU,1675789551
102,lakes entrance,-37.8811,147.981,14.53,89,17,1.29,AU,1675789670
103,whitehorse,60.7161,-135.0538,-12.17,96,63,2.91,CA,1675789671
104,saldanha,-33.0117,17.9442,18.91,88,100,10.68,ZA,1675789671
105,hilo,19.7297,-155.09,22.93,89,75,3.09,US,1675789672
106,saint-philippe,-21.3585,55.7679,27.77,84,62,6.0,RE,1675789438
107,elizabeth city,36.2946,-76.2511,12.25,63,0,2.57,US,1675789672
108,alofi,-19.0595,-169.9187,23.94,100,100,2.06,NU,1675789661
109,ancud,-41.8697,-73.8203,17.48,68,2,3.28,CL,1675789559
110,hithadhoo,-0.6,73.0833,27.74,67,100,3.96,MV,1675789673
111,verkhoyansk,67.5447,133.385,-47.64,100,91,0.53,RU,1675789673
112,thompson,55.7435,-97.8558,-20.54,93,88,1.77,CA,1675789610
113,pangkalanbuun,-2.6833,111.6167,23.85,90,100,1.03,ID,1675789674
114,dossor,47.5272,52.9811,-3.87,92,100,9.63,KZ,1675789616
115,pundaguitan,6.3711,126.1689,26.76,75,100,7.69,PH,1675789674
116,rincon,32.296,-81.2354,21.06,47,75,4.63,US,1675789361
117,bengkulu,-3.8004,102.2655,24.94,86,96,3.66,ID,1675789559
118,pangai,-19.8,-174.35,26.56,78,100,8.03,TO,1675789675
119,zhigansk,66.7697,123.3711,-46.57,100,94,1.13,RU,1675789676
120,khatanga,71.9667,102.5,-43.62,100,70,0.79,RU,1675789676
121,barcelos,41.5388,-8.6151,14.4,58,0,1.97,PT,1675789626
122,souillac,-20.5167,57.5167,27.21,74,40,5.66,MU,1675789534
123,antalaha,-14.9003,50.2788,24.4,90,100,3.15,MG,1675789677
124,kyshtovka,56.555,76.6271,-18.59,100,98,1.72,RU,1675789677
125,erenhot,43.6475,111.9767,-9.8,75,2,2.54,CN,1675789678
126,andenes,69.3143,16.1194,4.99,60,75,14.4,NO,1675789678
127,palmer,42.1584,-72.3287,3.61,31,29,0.89,US,1675789659
128,pevek,69.7008,170.3133,-31.11,98,100,1.15,RU,1675789601
129,san patricio,28.017,-97.5169,25.97,75,100,8.21,US,1675789679
130,lebu,-37.6167,-73.65,18.45,65,0,8.18,CL,1675789557
131,solnechnyy,50.7214,136.6319,-21.44,99,100,1.89,RU,1675789680
132,bilopillya,51.1502,34.3129,-8.34,92,22,3.95,UA,1675789680
133,lingao,19.9103,109.6859,21.5,91,11,6.06,CN,1675789680
134,guarda,40.5373,-7.2658,7.91,57,9,2.57,PT,1675789569
135,birao,10.2849,22.7882,29.22,10,25,3.01,CF,1675789682
136,marovoay,-16.1,46.6333,25.12,89,100,1.58,MG,1675789683
137,coihaique,-45.5752,-72.0662,23.34,46,40,4.12,CL,1675789418
138,arman,59.7,150.1667,-30.1,83,84,3.83,RU,1675789685
139,sabinas,27.85,-101.1167,21.54,61,48,5.32,MX,1675789687
140,dhidhdhoo,6.8833,73.1,27.07,71,75,4.45,MV,1675789689
141,haines junction,60.7522,-137.5108,-9.05,97,100,0.24,CA,1675789691
142,avarua,-21.2078,-159.775,26.03,89,75,2.06,CK,1675789433
143,palembang,-2.9167,104.7458,24.05,88,40,1.03,ID,1675789695
144,lompoc,34.6391,-120.4579,15.43,68,0,2.14,US,1675789636
145,milazzo,38.2212,15.2383,9.02,53,24,1.79,IT,1675789705
146,saint-georges,12.0564,-61.7485,25.55,77,99,6.23,GD,1675789709
147,constitucion,-35.3333,-72.4167,21.93,53,3,2.02,CL,1675789433
148,severo-kurilsk,50.6789,156.125,-5.26,67,80,6.15,RU,1675789438
149,vila franca do campo,37.7167,-25.4333,13.23,76,79,7.04,PT,1675789714
150,tasiilaq,65.6145,-37.6368,-15.91,58,51,6.35,GL,1675789715
151,mana,5.6592,-53.7767,27.23,77,71,4.93,GF,1675789716
152,kaitangata,-46.2817,169.8464,12.09,59,19,3.97,NZ,1675789717
153,tsuruga,35.6455,136.0558,5.35,87,56,1.6,JP,1675789717
154,zabaykalsk,49.6333,117.3167,-19.65,98,60,3.78,RU,1675789717
155,ukiah,39.1502,-123.2078,10.91,95,0,0.0,US,1675789718
156,tiksi,71.6872,128.8694,-32.22,99,100,1.65,RU,1675789492
157,vigrestad,58.5667,5.7,6.99,93,100,1.71,NO,1675789718
158,lyantonde,-0.4031,31.1572,21.42,62,75,1.86,UG,1675789719
159,maumere,-8.6199,122.2111,26.59,84,99,5.03,ID,1675789719
160,araouane,18.9048,-3.5265,30.58,8,39,4.13,ML,1675789640
161,abeche,13.8292,20.8324,28.27,12,20,4.91,TD,1675789720
162,tahoua,14.8888,5.2692,31.45,9,100,5.36,NE,1675789721
163,makakilo city,21.3469,-158.0858,23.18,76,0,6.69,US,1675789722
164,jabinyanah,35.035,10.9081,12.85,66,7,5.75,TN,1675789722
165,kashan,33.9831,51.4364,10.44,43,1,0.61,IR,1675789653
166,kruisfontein,-34.0033,24.7314,20.44,75,99,5.35,ZA,1675789598
167,tobermory,45.2501,-81.6665,3.42,88,100,13.49,CA,1675789723
168,impfondo,1.6381,18.0667,30.91,27,90,1.16,CG,1675789724
169,arraial do cabo,-22.9661,-42.0278,29.92,70,40,3.09,BR,1675789724
170,bata,1.8639,9.7658,27.59,75,45,4.3,GQ,1675789724
171,ust-ishim,57.6935,71.1665,-20.1,100,97,1.97,RU,1675789725
172,yellowknife,62.456,-114.3525,-18.71,78,100,3.09,CA,1675789522
173,norman wells,65.282,-126.8329,-22.16,99,99,0.66,CA,1675789726
174,khani,41.9563,42.9566,-1.24,98,100,1.99,GE,1675789726
175,severnyy,50.677,36.5532,-9.98,78,0,5.0,RU,1675789727
176,roma,43.2128,-75.4557,5.96,56,0,5.66,US,1675789727
177,cayenne,4.9333,-52.3333,30.02,66,75,7.2,GF,1675789728
178,tokur,53.1333,132.9,-37.29,100,100,0.8,RU,1675789728
179,isangel,-19.55,169.2667,25.75,86,100,1.86,VU,1675789728
180,muravlenko,63.7898,74.523,-25.86,100,41,3.9,RU,1675789729
181,gorontalo,0.5412,123.0595,23.56,94,100,2.53,ID,1675789729
182,faanui,-16.4833,-151.75,26.64,78,28,5.48,PF,1675789730
183,belaya gora,68.5333,146.4167,-41.61,100,99,0.56,RU,1675789730
184,sunam,30.1333,75.8,12.83,36,0,2.62,IN,1675789731
185,yulara,-25.2406,130.9889,27.3,23,0,3.62,AU,1675789731
186,beloha,-25.1667,45.05,23.94,74,100,4.34,MG,1675789659
187,san jose,37.3394,-121.895,12.83,72,40,0.89,US,1675789488
188,nouadhibou,20.931,-17.0347,18.28,63,0,8.92,MR,1675789732
189,nikolayevsk-na-amure,53.1406,140.73,-22.62,98,100,1.44,RU,1675789732
190,lamu,-2.2717,40.902,24.94,86,35,5.89,KE,1675789733
191,raudeberg,61.9875,5.1352,4.93,66,81,8.29,NO,1675789733
192,guatire,10.4762,-66.5427,29.0,67,97,2.85,VE,1675789733
193,los llanos de aridane,28.6585,-17.9182,16.86,71,75,6.69,ES,1675789734
194,kysyl-syr,63.8986,122.7617,-43.57,100,100,0.34,RU,1675789734
195,amuntai,-2.4177,115.2494,23.71,95,100,1.23,ID,1675789735
196,cairns,-16.9167,145.7667,26.97,87,93,2.57,AU,1675789722
197,wesselsbron,-27.8549,26.3658,23.92,52,100,4.78,ZA,1675789736
198,savalou,7.9281,1.9756,36.34,24,99,2.6,BJ,1675789736
199,esperance,-33.8667,121.9,19.2,82,25,4.59,AU,1675789737
200,luderitz,-26.6481,15.1594,22.82,66,0,12.59,NA,1675789737
201,boyolangu,-8.1181,111.8935,23.49,93,100,1.17,ID,1675789738
202,havre-saint-pierre,50.2334,-63.5986,-13.52,72,36,1.74,CA,1675789738
203,lysva,58.1086,57.8053,-24.94,100,73,0.51,RU,1675789739
204,sabha,27.0377,14.4283,17.24,28,97,4.43,LY,1675789739
205,tonantins,-2.8731,-67.8022,28.45,80,54,0.66,BR,1675789739
206,fare,-16.7,-151.0167,26.58,78,23,4.99,PF,1675789740
207,nyurba,63.2842,118.3319,-39.52,100,100,0.57,RU,1675789740
208,georgetown,5.4112,100.3354,23.98,86,98,3.56,MY,1675789683
209,puerto leguizamo,-0.1934,-74.7819,32.79,41,25,2.31,CO,1675789741
210,new castle,41.0037,-80.347,10.5,51,100,2.57,US,1675789741
211,yenotayevka,47.2456,47.0281,-5.25,92,100,11.62,RU,1675789744
212,gamboma,-1.8764,15.8644,27.45,57,76,3.15,CG,1675789745
213,gurgentepe,40.7883,37.6017,-5.06,97,100,1.96,TR,1675789747
214,puerto del rosario,28.5004,-13.8627,19.86,49,20,5.14,ES,1675789750
215,nikolskoye,59.7035,30.7861,-2.06,92,89,4.0,RU,1675789637
216,tanout,14.9709,8.8879,27.16,9,100,5.02,NE,1675789757
217,doume,4.2333,13.45,29.1,19,5,0.99,CM,1675789762
218,contamana,-7.3333,-75.0167,30.2,59,72,2.4,PE,1675789763
219,fort nelson,58.8053,-122.7002,-14.47,93,4,0.89,CA,1675789765
220,vuktyl,63.8567,57.3094,-15.1,94,100,4.9,RU,1675789769
221,craig,40.5153,-107.5464,-4.21,92,100,1.54,US,1675789773
222,viedma,-40.8135,-62.9967,33.55,21,0,2.29,AR,1675789774
223,lewisporte,49.2499,-55.0482,-8.58,60,56,4.33,CA,1675789775
224,rawson,-43.3002,-65.1023,27.71,29,31,5.07,AR,1675789776
225,copala,16.65,-98.9833,29.06,50,0,2.27,MX,1675789777
226,raymondville,26.4815,-97.7831,26.0,54,82,11.54,US,1675789777
227,nhulunbuy,-12.2333,136.7667,27.34,89,100,0.0,AU,1675789778
228,colares,38.7992,-9.4469,14.86,55,20,8.05,PT,1675789778
229,paita,-5.0892,-81.1144,27.68,62,14,4.87,PE,1675789779
230,ariquemes,-9.9133,-63.0408,23.51,96,100,0.33,BR,1675789780
231,bara,10.3744,10.7288,37.88,11,89,4.94,NG,1675789368
232,dagana,16.5165,-15.5068,30.67,11,49,6.26,MR,1675789780
233,geraldton,-28.7667,114.6,22.23,83,40,6.17,AU,1675789781
234,mareeba,-17.0,145.4333,24.4,90,100,1.11,AU,1675789782
235,cap malheureux,-19.9842,57.6142,27.48,75,18,4.47,MU,1675789782
236,sechura,-5.5569,-80.8222,29.77,52,25,3.73,PE,1675789783
237,masterton,-40.9597,175.6575,17.71,93,13,1.35,NZ,1675789671
238,sao filipe,14.8961,-24.4956,20.61,64,0,6.55,CV,1675789515
239,cacador,-26.7753,-51.015,30.65,24,3,1.95,BR,1675789784
240,touros,-5.1989,-35.4608,30.31,52,60,7.6,BR,1675789785
241,urengoy,65.9667,78.3667,-30.59,100,90,2.16,RU,1675789785
242,bakonyszentlaszlo,47.389,17.8032,-2.55,62,2,1.33,HU,1675789785
243,abu samrah,35.3029,37.1841,5.14,74,15,6.29,SY,1675789786
244,vostok,46.4856,135.8833,-18.86,99,100,1.98,RU,1675789786
245,bonthe,7.5264,-12.505,28.62,57,69,5.26,SL,1675789787
246,zhanakorgan,43.9098,67.2495,2.09,61,100,3.66,KZ,1675789788
247,tiznit,29.5833,-9.5,13.11,51,3,5.16,MA,1675789788
248,ayagoz,47.9714,80.4392,-6.23,95,100,3.61,KZ,1675789788
249,pochutla,15.7432,-96.4661,30.9,35,0,2.63,MX,1675789790
250,cacapava,-23.1008,-45.7069,26.14,79,82,1.6,BR,1675789509
251,santa lucia,27.9117,-15.5407,14.87,55,75,6.69,ES,1675789791
252,margate,51.3813,1.3862,5.5,84,9,0.45,GB,1675789792
253,talnakh,69.4865,88.3972,-20.85,98,99,2.6,RU,1675789792
254,antofagasta,-23.65,-70.4,23.6,70,86,4.11,CL,1675789792
255,khandyga,62.6667,135.6,-44.49,100,99,1.02,RU,1675789793
256,la ronge,55.1001,-105.2842,-9.86,79,75,1.54,CA,1675789508
257,ixtapa,20.7,-105.2,22.57,68,20,0.0,MX,1675789662
258,port lincoln,-34.7333,135.8667,17.67,81,0,6.11,AU,1675789794
259,prince george,53.9166,-122.753,0.69,94,100,1.54,CA,1675789792
260,baykalsk,51.5058,104.1469,-13.03,79,60,3.03,RU,1675789794
261,acapulco,16.8634,-99.8901,29.9,48,0,2.06,MX,1675789787
262,balikpapan,-1.2675,116.8289,23.85,91,100,2.81,ID,1675789795
263,saint-augustin,51.226,-58.6502,-13.69,58,3,1.44,CA,1675789795
264,tigre,-34.426,-58.5796,35.03,31,38,2.74,AR,1675789796
265,kununurra,-15.7667,128.7333,25.99,78,1,3.6,AU,1675789740
266,chumikan,54.7183,135.315,-30.65,87,27,3.68,RU,1675789797
267,heide,54.2,9.1,1.97,80,1,2.26,DE,1675789797
268,ndele,8.4109,20.6473,30.62,11,27,2.46,CF,1675789798
269,quarteira,37.0695,-8.1006,15.87,74,20,2.57,PT,1675789798
270,sterling heights,42.5803,-83.0302,9.98,73,100,5.14,US,1675789612
271,kwekwe,-18.9281,29.8149,22.1,52,67,2.37,ZW,1675789799
272,upernavik,72.7868,-56.1549,-25.84,94,99,3.09,GL,1675789800
273,udachnyy,66.4167,112.4,-39.72,100,96,1.22,RU,1675789605
274,lata,40.1629,-8.3327,11.73,54,3,1.06,PT,1675789800
275,xichang,27.8964,102.2634,7.57,67,71,1.48,CN,1675789801
276,chokurdakh,70.6333,147.9167,-40.85,100,99,1.67,RU,1675789549
277,christchurch,-43.5333,172.6333,16.62,77,75,2.57,NZ,1675789657
278,torbay,47.6666,-52.7314,-4.68,84,100,9.83,CA,1675789606
279,mahebourg,-20.4081,57.7,27.36,79,44,6.86,MU,1675789808
280,gornopravdinsk,60.05,69.9,-26.11,100,66,1.26,RU,1675789815
281,pishin,30.5803,66.9961,10.75,29,95,1.71,PK,1675789824
282,ryotsu,38.0833,138.4333,5.77,72,100,4.22,JP,1675789821
283,hobyo,5.3505,48.5268,25.02,78,23,6.16,SO,1675789831
284,ituporanga,-27.4144,-49.6025,31.46,33,2,1.09,BR,1675789835
285,honningsvag,70.9821,25.9704,1.86,80,75,16.46,NO,1675789592
286,longyearbyen,78.2186,15.6401,-4.09,80,75,19.03,SJ,1675789836
287,xining,36.6167,101.7667,-1.39,48,100,2.9,CN,1675789837
288,svetlyy,54.675,20.1347,1.09,93,58,2.14,RU,1675789838
289,grand-lahou,5.1367,-5.0242,27.77,76,90,4.74,CI,1675789838
290,bahia blanca,-38.7196,-62.2724,34.05,38,0,2.05,AR,1675789839
291,mantua,45.1667,10.7833,4.58,67,5,1.99,IT,1675789355
292,davila,18.4726,120.5763,25.35,83,6,4.38,PH,1675789839
293,ritchie,-29.038,24.6028,26.14,43,99,5.23,ZA,1675789840
294,havoysund,70.9963,24.6622,2.13,72,75,20.34,NO,1675789841
295,noumea,-22.2763,166.4572,22.99,82,86,3.51,NC,1675789604
296,katsuura,35.1333,140.3,10.62,84,100,6.54,JP,1675789841
297,marathon,44.9,-89.7668,1.91,75,100,7.72,US,1675789842
298,airai,-8.9266,125.4092,16.35,93,75,0.89,TL,1675789739
299,hasaki,35.7333,140.8333,8.22,84,100,10.4,JP,1675789842
300,baykit,61.67,96.37,-17.55,98,100,0.75,RU,1675789843
301,mount hagen,-5.8581,144.2274,15.9,99,100,0.05,PG,1675789844
302,namibe,-15.1961,12.1522,22.76,71,100,5.27,AO,1675789844
303,traverse city,44.7631,-85.6206,4.11,84,100,4.63,US,1675789845
304,la ligua,-32.4524,-71.2311,27.07,47,9,3.84,CL,1675789845
305,camacha,33.0833,-16.3333,14.68,63,40,7.72,PT,1675789750
306,homer,59.6425,-151.5483,0.45,92,100,3.58,US,1675789846
307,port-gentil,-0.7193,8.7815,27.98,78,20,3.6,GA,1675789847
308,bend,44.0582,-121.3153,4.5,61,0,3.58,US,1675789739
309,bulgan,48.8125,103.5347,-19.13,93,10,1.56,MN,1675789847
310,daru,-9.0763,143.2092,24.39,94,100,5.5,PG,1675789848
311,labuhan,-6.8844,112.2051,24.76,90,100,3.18,ID,1675789637
312,gainesville,29.6516,-82.3248,23.77,46,0,5.66,US,1675789600
313,mount gambier,-37.8333,140.7667,12.17,89,78,3.44,AU,1675789849
314,baherden,38.4362,57.4316,13.31,35,24,1.0,TM,1675789849
315,codrington,-38.2667,141.9667,12.44,87,58,3.75,AU,1675789850
316,staroutkinsk,57.2302,59.3348,-21.64,100,95,0.91,RU,1675789850
317,auki,-8.7676,160.7034,25.17,91,100,2.12,SB,1675789788
318,marsa matruh,31.3525,27.2453,12.65,58,100,4.27,EG,1675789851
319,vila velha,-20.3297,-40.2925,30.97,70,20,7.72,BR,1675789851
320,poum,-20.2333,164.0167,26.82,83,100,3.27,NC,1675789852
321,miles city,46.4083,-105.8406,4.54,65,0,4.63,US,1675789852
322,tomatlan,19.9333,-105.25,28.25,44,55,1.69,MX,1675789853
323,krasnoselkup,65.7,82.4667,-21.34,99,98,4.43,RU,1675789826
324,mananara,-16.1667,49.7667,23.83,94,85,2.05,MG,1675789853
325,sandwick,60.0,-1.25,6.9,65,20,10.29,GB,1675789854
326,dunedin,-45.8742,170.5036,11.35,72,81,3.82,NZ,1675789854
327,villa union,23.2,-106.2333,21.98,53,75,2.57,MX,1675789855
328,kahului,20.8947,-156.47,23.8,85,20,4.47,US,1675789671
329,kavaratti,10.5669,72.642,26.99,70,95,4.94,IN,1675789856
330,muscat,23.6139,58.5922,24.17,58,22,4.49,OM,1675789601
331,inirida,3.8653,-67.9239,31.56,56,64,1.03,CO,1675789856
332,bar harbor,44.3876,-68.2039,-1.31,49,0,3.6,US,1675789857
333,berlevag,70.8578,29.0864,3.0,80,40,21.61,NO,1675789801
334,hohhot,40.8106,111.6522,-5.52,63,14,3.46,CN,1675789857
335,novyy urengoy,66.0833,76.6333,-27.1,100,88,2.87,RU,1675789858
336,lima,-12.0432,-77.0282,26.14,65,0,6.69,PE,1675789575
337,sinnamary,5.3833,-52.95,26.84,82,54,5.09,GF,1675789858
338,nara,34.6851,135.8049,8.61,53,35,1.07,JP,1675789859
339,lazaro cardenas,17.9583,-102.2,28.2,55,31,1.42,MX,1675789859
340,verkhniy ufaley,56.0567,60.2306,-16.9,100,95,1.06,RU,1675789860
341,savinka,50.0785,47.0994,-9.85,89,25,7.88,RU,1675789861
342,sangar,63.9242,127.4739,-43.56,100,100,0.77,RU,1675789792
343,ilulissat,69.2167,-51.1,-22.99,70,75,2.57,GL,1675789715
344,waddan,29.1614,16.139,13.58,41,100,5.36,LY,1675789597
345,adre,13.4667,22.2,25.22,14,24,5.26,TD,1675789874
346,half moon bay,37.4636,-122.4286,12.49,82,20,0.0,US,1675789876
347,egvekinot,66.3167,-179.1667,-30.21,87,98,3.92,RU,1675789878
348,leningradskiy,69.3833,178.4167,-31.51,97,100,2.82,RU,1675789697
349,dongfeng,42.6403,125.5118,-15.08,89,8,2.08,CN,1675789894
350,ust-koksa,50.2696,85.6108,-14.33,94,85,0.55,RU,1675789895
351,pisco,-13.7,-76.2167,25.01,88,0,3.6,PE,1675789485
352,kem,64.9555,34.5793,2.26,92,100,7.76,RU,1675789896
353,cabo san lucas,22.8909,-109.9124,22.81,66,40,2.06,MX,1675789500
354,sao jose da coroa grande,-8.8978,-35.1478,28.58,59,28,5.31,BR,1675789701
355,anadyr,64.75,177.4833,-28.72,76,40,3.0,RU,1675789897
356,sedalia,38.7045,-93.2283,7.95,61,0,4.63,US,1675789898
357,vestmanna,62.1564,-7.1664,6.51,81,100,10.8,FO,1675789898
358,sychevka,55.8252,34.2736,-13.93,98,21,2.03,RU,1675789899
359,juneau,58.3019,-134.4197,2.34,97,75,3.09,US,1675789891
360,olafsvik,64.8945,-23.7142,-1.93,53,100,18.79,IS,1675789900
361,huaiyin,33.5886,119.0192,5.06,75,100,2.5,CN,1675789900
362,fortuna,40.5982,-124.1573,6.63,96,0,3.09,US,1675789807
363,iskateley,67.6803,53.1512,-7.51,94,100,9.65,RU,1675789901
364,merauke,-8.4667,140.3333,25.38,90,100,4.55,ID,1675789901
365,oga,46.4631,10.347,-5.66,83,0,1.84,IT,1675789902
366,stodolishche,54.1859,32.6492,-12.38,97,20,1.23,RU,1675789902
367,mount isa,-20.7333,139.5,25.87,83,86,3.09,AU,1675789840
368,karema,-6.8205,30.4389,22.08,82,100,1.03,TZ,1675789903
369,saryagash,41.4511,69.1701,4.98,48,98,2.96,KZ,1675789903
370,saint-pierre,-21.3393,55.4781,27.82,74,20,5.66,RE,1675789904
371,faya,18.3851,42.4509,14.29,75,42,2.52,SA,1675789903
372,qaqortoq,60.7167,-46.0333,-14.65,53,41,7.87,GL,1675789905
373,mogadishu,2.0371,45.3438,25.04,85,65,8.53,SO,1675789664
374,ahipara,-35.1667,173.1667,18.02,78,97,2.29,NZ,1675789729
375,nelson bay,-32.7167,152.15,22.78,84,11,4.02,AU,1675789906
376,benidorm,38.5382,-0.131,12.05,72,89,5.66,ES,1675789641
377,yeniseysk,58.4497,92.1703,-9.82,96,100,2.07,RU,1675789907
378,piacabucu,-10.4056,-36.4344,29.36,53,93,5.8,BR,1675789908
379,estreito,-5.7833,-43.25,31.71,52,93,1.51,BR,1675789667
380,nguruka,-5.1092,31.0419,19.75,89,91,0.17,TZ,1675789908
381,bambous virieux,-20.3428,57.7575,27.34,79,41,6.72,MU,1675789909
382,walvis bay,-22.9575,14.5053,20.05,74,27,3.77,NA,1675789909
383,maua,-23.6678,-46.4614,26.87,83,95,2.86,BR,1675789910
384,urumqi,43.801,87.6005,-8.47,93,40,1.0,CN,1675789910
385,strezhevoy,60.7333,77.5889,-20.23,99,98,3.17,RU,1675789911
386,huarmey,-10.0681,-78.1522,25.26,72,34,4.29,PE,1675789911
387,dickinson,29.4608,-95.0513,23.4,84,100,6.69,US,1675789664
388,batsfjord,70.6345,29.7185,1.96,80,40,24.18,NO,1675789912
389,ingham,42.6,-84.3833,8.97,77,100,6.17,US,1675789912
390,timizart,36.8,4.2667,11.75,64,49,2.39,DZ,1675789913
391,simao,22.7886,100.9748,11.24,38,0,0.62,CN,1675789913
392,monterrey,25.6667,-100.3167,27.64,41,83,1.31,MX,1675789699
393,port blair,11.6667,92.75,25.75,75,13,4.1,IN,1675789851
394,skibbereen,51.55,-9.2667,9.5,81,72,1.49,IE,1675789914
395,vardo,70.3705,31.1107,1.99,75,0,19.03,NO,1675789901
396,gimli,50.6336,-96.9907,-10.48,85,93,1.18,CA,1675789915
397,shu,43.5983,73.7614,-1.75,92,28,1.48,KZ,1675789915
398,vinh,18.6667,105.6667,21.13,96,13,0.7,VN,1675789916
399,elk point,42.6833,-96.6836,1.91,84,5,2.78,US,1675789916
400,bitkine,11.9801,18.2138,29.66,12,28,4.01,TD,1675789917
401,aquin,18.2833,-73.4,26.76,66,17,2.3,HT,1675789917
402,marsh harbour,26.5412,-77.0636,21.96,62,5,8.07,BS,1675789917
403,vanimo,-2.6741,141.3028,24.74,96,100,3.63,PG,1675789728
404,riyadh,24.6877,46.7219,20.08,26,88,5.89,SA,1675789459
405,tibiri,13.5627,7.0485,30.06,9,100,4.17,NE,1675789918
406,suez,29.9737,32.5263,13.04,45,81,6.6,EG,1675789919
407,amapa,1.0,-52.0,27.09,84,93,2.03,BR,1675789919
408,khachrod,23.4167,75.2833,17.88,22,0,3.19,IN,1675789920
409,shenjiamen,29.9576,122.298,8.31,79,71,5.52,CN,1675789920
410,koslan,63.4564,48.8989,-9.85,94,100,4.53,RU,1675789920
411,macae,-22.3708,-41.7869,26.13,84,100,3.2,BR,1675789921
412,cabo rojo,18.0866,-67.1457,30.49,65,1,2.24,PR,1675789922
413,watsa,3.0372,29.5355,25.32,29,82,0.4,CD,1675789924
414,flinders,-34.5833,150.8552,21.21,90,100,1.34,AU,1675789899
415,careiro da varzea,-3.2003,-59.8119,30.34,82,78,1.68,BR,1675789929
416,orhei,47.3831,28.8231,-2.9,60,79,4.26,MD,1675789933
417,santa cruz,-17.8,-63.1667,26.23,77,97,4.25,BO,1675789679
418,biak,-0.9131,122.8766,25.34,77,100,2.3,ID,1675789935
419,machacamarca,-18.1667,-67.0333,10.84,65,100,1.88,BO,1675789939
420,shenzhen,22.5455,114.0683,20.48,91,32,3.31,CN,1675789943
421,kidal,18.4411,1.4078,32.69,9,98,3.79,ML,1675789947
422,jaisalmer,26.9147,70.9181,21.7,19,0,2.43,IN,1675789957
423,muros,42.7762,-9.0603,12.83,52,0,8.94,ES,1675789958
424,floro,61.5996,5.0328,5.54,87,75,4.63,NO,1675789958
425,copiapo,-27.3667,-70.3333,20.83,35,2,4.76,CL,1675789959
426,high rock,26.6208,-78.2833,24.01,61,8,7.23,BS,1675789959
427,atbasar,51.8,68.3333,-16.5,99,85,0.92,KZ,1675789960
428,gillette,44.2911,-105.5022,2.51,60,0,4.63,US,1675789726
429,miri,4.4148,114.0089,24.45,89,94,1.45,MY,1675789960
430,hervey bay,-25.2986,152.8535,25.11,64,21,6.4,AU,1675789961
431,brae,60.3964,-1.353,6.56,72,13,9.87,GB,1675789961
432,khor,47.8861,134.9464,-22.84,100,92,3.39,RU,1675789962
433,bereda,43.2686,-7.5406,6.9,86,16,3.96,ES,1675789962
434,lucapa,-8.4192,20.7447,20.21,88,89,1.45,AO,1675789963
435,verkhnetulomskiy,68.6073,31.7962,3.07,72,100,6.74,RU,1675789964
436,teya,60.3778,92.6267,-17.63,100,100,1.1,RU,1675789964
437,nizhniy kuranakh,58.8353,125.4869,-32.48,99,99,0.19,RU,1675789965
438,poronaysk,49.2167,143.1167,-22.78,99,99,1.41,RU,1675789965
439,tecpatan,17.1333,-93.3,25.95,51,4,0.4,MX,1675789965
440,ilheus,-14.7889,-39.0494,29.64,57,18,4.57,BR,1675789966
441,ostrovnoy,68.0531,39.5131,2.42,89,100,11.17,RU,1675789899
442,darlawn,24.0167,92.9,11.38,61,20,1.7,IN,1675789966
443,ostersund,63.1792,14.6357,2.25,93,0,2.57,SE,1675789967
444,adrar,20.5022,-10.0711,24.17,13,4,5.59,MR,1675789968
445,jieshi,22.8134,115.8257,17.45,85,32,8.5,CN,1675789969
446,banda aceh,5.5577,95.3222,25.19,87,91,2.13,ID,1675789731
447,podgorica,42.4411,19.2636,4.72,28,0,6.17,ME,1675789426
448,yarada,17.65,83.2667,22.18,88,74,1.03,IN,1675789969
449,nanortalik,60.1432,-45.2371,-12.93,62,6,12.37,GL,1675789970
450,zaysan,47.4667,84.8667,-9.63,85,98,1.18,KZ,1675789970
451,loandjili,-4.7561,11.8578,27.07,80,80,3.78,CG,1675789971
452,kapoeta,4.7717,33.5903,32.88,19,10,4.49,SS,1675789971
453,mandalgovi,45.7625,106.2708,-14.76,94,11,2.35,MN,1675789693
454,pitimbu,-7.4706,-34.8086,31.33,60,100,6.88,BR,1675789972
455,alibag,18.6411,72.8792,25.04,72,35,2.75,IN,1675789801
456,yar-sale,66.8333,70.8333,-22.96,98,45,4.69,RU,1675789923
457,nioro,13.35,-15.75,34.88,10,11,3.74,GM,1675789973
458,rodrigues alves,-7.738,-72.6509,23.62,95,98,1.72,BR,1675789878
459,broken hill,-31.95,141.4333,22.86,27,0,4.43,AU,1675789973
460,olden,61.8364,6.8064,5.06,99,100,2.3,NO,1675789974
461,boromlya,50.6184,34.9704,-7.94,89,14,4.79,UA,1675789974
462,muskegon heights,43.2011,-86.239,4.43,85,80,2.24,US,1675789974
463,gushikawa,26.3544,127.8686,19.57,88,75,0.0,JP,1675789975
464,peniche,39.3558,-9.3811,14.5,60,2,5.41,PT,1675789847
465,thunder bay,48.4001,-89.3168,-4.7,85,35,5.86,CA,1675789680
466,college,64.8569,-147.8028,-14.33,79,100,2.06,US,1675789971
467,mahon,39.8885,4.2658,11.31,82,75,12.35,ES,1675789976
468,san cristobal,7.7669,-72.225,28.21,41,42,3.47,VE,1675789729
469,sesimbra,38.4445,-9.1015,14.85,66,20,6.73,PT,1675789726
470,acolla,-11.7319,-75.5463,15.85,45,82,2.55,PE,1675789977
471,shizuishan,39.2333,106.7694,-2.45,48,48,1.21,CN,1675789978
472,cidreira,-30.1811,-50.2056,26.51,62,2,4.47,BR,1675789978
473,lalsot,26.5667,76.3333,16.1,34,0,2.39,IN,1675789978
474,kalga,50.9251,118.898,-27.48,100,67,1.3,RU,1675789979
475,bago,17.3367,96.4797,21.9,32,48,3.02,MM,1675789979
476,horodyshche,49.2849,31.4451,-5.28,85,80,5.15,UA,1675789980
477,naze,28.3667,129.4833,16.36,78,41,5.75,JP,1675789980
478,borskoye,53.0333,51.7167,-17.37,99,43,1.88,RU,1675789981
479,tuzha,57.6062,47.936,-19.06,100,91,2.09,RU,1675789981
480,chino valley,34.7575,-112.4538,5.34,47,0,4.12,US,1675789983
481,maneadero,31.7167,-116.5667,15.96,33,0,4.12,MX,1675789699
482,sisimiut,66.9395,-53.6735,-19.34,94,100,2.84,GL,1675789990
483,ati,13.2154,18.3353,28.43,12,11,5.01,TD,1675789852
484,wakema,16.6,95.1833,20.28,62,41,3.2,MM,1675789999
485,gasa,31.5,34.4667,9.38,59,91,10.62,PS,1675789816
486,kalamnuri,19.6667,77.3333,23.44,27,55,3.19,IN,1675789960
487,green river,41.5286,-109.4662,-2.78,91,60,3.23,US,1675789716
488,vila,42.0304,-8.1588,8.49,48,0,2.4,PT,1675790014
489,hami,42.8,93.45,0.56,47,100,1.23,CN,1675790015
490,terrace,54.5163,-128.6035,-4.74,94,90,0.54,CA,1675790016
491,tefe,-3.3542,-64.7114,30.06,70,75,1.03,BR,1675790017
492,portoferraio,42.8115,10.3146,8.07,46,1,7.22,IT,1675790017
493,yavaros,26.7,-109.5167,18.62,27,57,7.27,MX,1675790018
494,san policarpo,12.1791,125.5072,26.01,80,100,5.35,PH,1675790018
495,bhanpura,24.513,75.7469,19.19,26,0,1.91,IN,1675789506
496,almaznyy,48.0448,40.045,-7.7,86,99,8.85,RU,1675789966
497,yermakovskoye,53.2831,92.4003,-13.44,97,100,1.01,RU,1675789964
498,amboasary,-25.0333,46.3833,24.37,86,100,1.32,MG,1675790019
499,katangli,51.7102,143.2326,-20.83,100,100,1.73,RU,1675789900
500,umm kaddadah,13.6017,26.6876,21.97,18,12,7.29,SD,1675790020
501,nerchinskiy zavod,51.3088,119.61,-32.31,100,97,0.94,RU,1675790020
502,shaoxing,30.011,120.5715,8.97,87,98,1.93,CN,1675790021
503,pokrovsk,48.282,37.1758,-6.69,81,100,8.63,UA,1675790021
504,pangnirtung,66.1451,-65.7125,-33.54,91,10,0.86,CA,1675790021
505,balkanabat,39.5108,54.3671,13.84,36,100,1.24,TM,1675789778
506,ketchikan,55.3422,-131.6461,3.99,93,0,0.0,US,1675789765
507,biloela,-24.4167,150.5,20.28,80,18,4.24,AU,1675790022
508,sola,-13.8833,167.55,27.81,74,96,5.39,VU,1675790023
509,shanghai,31.2222,121.4581,8.29,65,0,4.0,CN,1675789545
510,acarau,-2.8856,-40.12,28.55,70,100,5.38,BR,1675789878
511,santo tomas,14.1079,121.1414,25.31,93,78,2.2,PH,1675790024
512,van,38.4924,43.3831,-3.36,93,75,3.6,TR,1675790024
513,sorochinsk,52.4338,53.1583,-18.41,99,40,2.18,RU,1675790025
514,fryanovo,56.1333,38.45,-16.69,100,65,1.61,RU,1675790025
515,gat,31.61,34.7642,9.38,100,90,9.94,IL,1675790021
516,embu,-23.6489,-46.8522,26.73,87,96,2.44,BR,1675790026
517,aranos,-24.1333,19.1167,25.77,47,89,3.81,NA,1675790027
518,road town,18.4167,-64.6167,28.02,74,40,4.12,VG,1675789961
519,ponta do sol,32.6667,-17.1,18.17,57,43,2.85,PT,1675789793
520,lewiston,44.1003,-70.2148,-1.64,45,0,1.69,US,1675789842
521,inverell,-29.7833,151.1167,17.87,81,21,2.24,AU,1675790028
522,puerto rico,-26.796,-55.024,39.12,15,0,0.73,AR,1675790029
523,ust-omchug,61.15,149.6333,-39.13,98,87,1.6,RU,1675790029
524,narsaq,60.9167,-46.05,-18.88,61,81,3.83,GL,1675790030
525,umm lajj,25.0213,37.2685,18.45,57,100,7.34,SA,1675790030
526,bela,25.9333,81.9833,17.67,57,0,3.41,IN,1675789941
527,atar,20.5169,-13.0499,24.74,13,31,6.94,MR,1675790031
528,fairbanks,64.8378,-147.7164,-14.32,82,100,2.06,US,1675790031
529,blagoyevo,63.3667,47.9167,-8.98,93,100,4.52,RU,1675790032
530,lagoa,39.05,-27.9833,13.03,60,73,9.27,PT,1675790032
531,nargana,9.4428,-78.5906,26.77,80,97,7.23,PA,1675790033
532,rantepao,-2.9701,119.8978,18.86,89,96,1.54,ID,1675790033
533,opuwo,-18.0607,13.84,27.67,34,94,7.05,NA,1675790034
534,huamachuco,-7.8,-78.0667,16.58,55,50,3.07,PE,1675790034
535,kjollefjord,70.9457,27.3465,2.9,65,40,19.03,NO,1675790034
536,west wendover,40.7391,-114.0733,-1.44,74,0,0.0,US,1675789861
537,karratha,-20.7377,116.8463,30.54,59,22,3.91,AU,1675790035
538,butembo,0.15,29.2833,17.76,54,68,1.32,CD,1675790035
539,aykhal,66.0,111.5,-37.42,100,99,1.71,RU,1675790036
540,gisborne,-38.6533,178.0042,16.17,85,58,1.99,NZ,1675790036
541,berdigestyakh,62.0989,126.6992,-42.62,100,100,0.61,RU,1675790037
542,aitape,-3.1374,142.3475,24.41,95,100,2.41,PG,1675790037
543,wuda,39.4994,106.7117,-2.1,46,21,3.15,CN,1675790038
544,daura,11.5538,11.4085,29.53,14,28,6.21,NG,1675790038
545,ardakan,32.31,54.0175,14.78,39,16,11.4,IR,1675790038
546,manokwari,-0.8667,134.0833,25.14,88,100,3.81,ID,1675790039
547,pierre,44.3683,-100.351,5.71,65,0,5.14,US,1675790039
548,itarema,-2.9248,-39.9167,29.14,66,100,5.75,BR,1675790040
549,namwala,-15.7504,26.4384,20.34,93,77,1.14,ZM,1675790040
550,lorengau,-2.0226,147.2712,25.99,90,100,6.1,PG,1675789869
551,belen,36.4891,36.2233,1.62,55,42,3.02,TR,1675790041
552,ouesso,1.6136,16.0517,30.23,31,85,0.18,CG,1675790041
553,ponta delgada,37.7333,-25.6667,13.4,88,40,11.32,PT,1675790045
554,ankang,32.68,109.0172,9.85,68,100,3.12,CN,1675790051
555,iquique,-20.2208,-70.1431,26.02,73,50,5.07,CL,1675790057
556,menongue,-14.6585,17.691,19.78,86,97,2.23,AO,1675790063
557,parkes,-33.1333,148.1833,22.42,57,0,2.24,AU,1675790066
558,shingu,33.7333,135.9833,7.54,84,66,2.6,JP,1675790068
559,hangu,39.2489,117.7892,-4.98,58,0,1.04,CN,1675790070
