City_ID,City,Lat,Lng,Max Temp,Humidity,Cloudiness,Wind Speed,Country,Date
0,punta arenas,-53.15,-70.9167,12.06,58,75,12.86,CL,1675177118
1,fort nelson,58.8053,-122.7002,-14.23,90,100,3.6,CA,1675177119
2,kattivakkam,13.2167,80.3167,27.05,79,100,5.69,IN,1675177119
3,hofn,64.2539,-15.2082,1.18,70,100,11.15,IS,1675177119
4,busselton,-33.65,115.3333,16.26,70,0,8.83,AU,1675177120
5,nyurba,63.2842,118.3319,-42.54,100,72,1.6,RU,1675177120
6,avera,33.194,-82.5271,13.54,93,100,2.06,US,1675177121
7,green river,41.5286,-109.4662,-19.78,67,9,0.94,US,1675177121
8,nikolskoye,59.7035,30.7861,-0.05,84,99,4.55,RU,1675177121
9,hermanus,-34.4187,19.2345,28.78,57,0,7.76,ZA,1675176919
10,puerto ayora,-0.7393,-90.3518,26.98,92,83,1.79,EC,1675176895
11,najran,17.4924,44.1277,29.36,18,38,3.22,SA,1675177122
12,la tuque,47.4334,-72.7824,-16.86,60,20,3.6,CA,1675177027
13,faanui,-16.4833,-151.75,26.73,77,63,5.7,PF,1675176957
14,carnarvon,-24.8667,113.6333,24.74,81,0,8.15,AU,1675177123
15,ati,13.2154,18.3353,37.86,7,2,5.36,TD,1675177123
16,luanda,-8.8368,13.2343,28.16,71,43,5.74,AO,1675176854
17,saint-pierre,-21.3393,55.4781,28.82,74,0,6.69,RE,1675177124
18,clyde river,70.4692,-68.5914,-26.87,69,100,4.12,CA,1675176929
19,jaguarao,-32.5661,-53.3758,31.61,42,0,3.35,BR,1675177124
20,esperance,-33.8667,121.9,17.22,74,100,8.1,AU,1675177003
21,loa janan,-0.583,117.095,23.24,99,100,0.36,ID,1675177125
22,bubaque,11.2833,-15.8333,26.27,39,7,2.45,GW,1675177125
23,kapaa,22.0752,-159.319,19.51,91,100,1.84,US,1675177126
24,rikitea,-23.1203,-134.9692,25.84,74,29,4.7,PF,1675176875
25,albany,42.6001,-73.9662,-1.54,66,79,1.34,US,1675176839
26,henties bay,-22.116,14.2845,19.89,71,28,5.33,NA,1675177027
27,malartic,48.1335,-78.1328,-23.94,94,97,3.63,CA,1675177126
28,qaanaaq,77.484,-69.3632,-20.77,41,69,3.31,GL,1675177127
29,ushuaia,-54.8,-68.3,13.79,62,75,2.57,AR,1675176710
30,kannangad,12.3081,75.1063,25.38,85,29,4.2,IN,1675177127
31,bilibino,68.0546,166.4372,-15.73,93,28,3.62,RU,1675177128
32,grindavik,63.8424,-22.4338,-0.03,80,100,5.66,IS,1675177128
33,marquette,46.5333,-87.6335,-17.03,61,20,5.81,US,1675177073
34,kudahuvadhoo,2.6708,72.8944,26.9,74,72,4.4,MV,1675176936
35,sorong,-0.8833,131.25,27.35,80,87,6.4,ID,1675176941
36,saint-philippe,-21.3585,55.7679,28.77,79,100,3.87,RE,1675176938
37,riviere-au-renard,48.9957,-64.3971,-13.84,77,100,3.15,CA,1675177129
38,hilo,19.7297,-155.09,25.16,91,20,2.57,US,1675176685
39,hobart,-42.8794,147.3294,16.92,87,100,0.51,AU,1675176928
40,kavaratti,10.5669,72.642,26.61,73,99,6.46,IN,1675177130
41,lalibela,12.0333,39.0333,23.67,20,8,3.19,ET,1675177130
42,bredasdorp,-34.5322,20.0403,24.75,62,0,7.07,ZA,1675176896
43,riyadh,24.6877,46.7219,25.08,26,8,4.59,SA,1675177073
44,cidreira,-30.1811,-50.2056,29.14,57,11,3.71,BR,1675177026
45,mataura,-46.1927,168.8643,15.79,100,100,0.76,NZ,1675176884
46,vanavara,60.34,102.2797,-26.3,100,99,1.59,RU,1675177131
47,tabou,4.423,-7.3528,29.33,67,53,3.64,CI,1675177132
48,taltal,-25.4,-70.4833,21.16,72,6,2.27,CL,1675176999
49,chuy,-33.6971,-53.4616,28.81,53,4,4.02,UY,1675176950
50,poronaysk,49.2167,143.1167,-25.2,97,40,1.64,RU,1675177132
51,upernavik,72.7868,-56.1549,-15.86,94,100,3.8,GL,1675177023
52,vaini,-21.2,-175.2,26.09,94,75,3.09,TO,1675176966
53,havre-saint-pierre,50.2334,-63.5986,-18.0,65,20,3.09,CA,1675177067
54,dombarovskiy,50.7587,59.5386,-15.62,93,84,3.2,RU,1675177134
55,cherskiy,68.75,161.3,-18.33,98,100,0.98,RU,1675176991
56,bambous virieux,-20.3428,57.7575,28.14,83,75,3.09,MU,1675176897
57,vila velha,-20.3297,-40.2925,29.97,71,40,5.14,BR,1675177135
58,mar del plata,-38.0023,-57.5575,28.24,85,40,3.13,AR,1675176763
59,cayenne,4.9333,-52.3333,28.02,74,75,2.06,GF,1675176951
60,geraldton,-28.7667,114.6,23.23,78,0,6.69,AU,1675177014
61,longyearbyen,78.2186,15.6401,-8.09,73,20,6.17,SJ,1675176996
62,santa maria,-29.6842,-53.8069,30.61,55,20,1.54,BR,1675177136
63,caravelas,-17.7125,-39.2481,29.09,59,34,3.69,BR,1675177018
64,khatanga,71.9667,102.5,-42.09,100,66,2.3,RU,1675177052
65,east london,-33.0153,27.9116,24.52,83,75,9.26,ZA,1675177063
66,vestmanna,62.1564,-7.1664,4.51,75,100,8.75,FO,1675177021
67,klaksvik,62.2266,-6.589,5.51,95,93,13.42,FO,1675177137
68,tocopilla,-22.092,-70.1979,23.26,74,100,1.5,CL,1675177138
69,berlevag,70.8578,29.0864,-0.03,93,100,1.54,NO,1675177022
70,north bend,43.4065,-124.2243,1.59,80,0,2.57,US,1675177034
71,constitucion,-35.3333,-72.4167,21.13,54,91,4.95,CL,1675176956
72,port alfred,-33.5906,26.891,24.54,84,45,4.47,ZA,1675176906
73,amga,60.8953,131.9608,-43.76,100,99,1.1,RU,1675177056
74,avarua,-21.2078,-159.775,26.03,78,75,5.14,CK,1675176928
75,taoudenni,22.6783,-3.9836,22.4,10,20,6.8,ML,1675177054
76,atuona,-9.8,-139.0333,26.12,78,100,11.41,PF,1675176892
77,brighton,50.8284,-0.1395,13.01,82,40,4.63,GB,1675177139
78,georgetown,5.4112,100.3354,28.96,74,20,2.57,MY,1675176881
79,mehamn,71.0357,27.8492,-0.05,93,75,1.54,NO,1675176949
80,port blair,11.6667,92.75,27.02,74,75,3.09,IN,1675176787
81,torbay,47.6666,-52.7314,1.43,93,75,2.57,CA,1675176920
82,bluff,-46.6,168.3333,15.43,97,100,2.59,NZ,1675176890
83,arraial do cabo,-22.9661,-42.0278,30.98,55,0,8.75,BR,1675176918
84,pampas,-12.4,-74.9,14.3,52,96,1.76,PE,1675177141
85,hualmay,-11.0964,-77.6139,23.92,72,100,2.76,PE,1675177141
86,banda aceh,5.5577,95.3222,25.56,84,100,1.61,ID,1675177030
87,castro,-24.7911,-50.0119,21.75,80,100,3.53,BR,1675176898
88,chumikan,54.7183,135.315,-24.07,86,17,9.75,RU,1675177143
89,port hardy,50.6996,-127.4199,2.1,80,100,6.69,CA,1675176918
90,vao,-22.6667,167.4833,24.71,78,18,4.15,NC,1675177007
91,marsh harbour,26.5412,-77.0636,24.13,71,18,3.41,BS,1675177077
92,bethel,41.3712,-73.414,1.78,72,100,2.06,US,1675176936
93,naduvattam,11.4833,76.5667,13.45,77,100,1.23,IN,1675177147
94,bhubaneswar,20.2333,85.8333,24.12,69,40,1.03,IN,1675177148
95,khandyga,62.6667,135.6,-34.92,98,100,0.86,RU,1675176980
96,tucumcari,35.1717,-103.725,-10.03,92,100,3.6,US,1675177155
97,chernyshevskiy,63.0128,112.4714,-38.55,100,92,1.17,RU,1675177156
98,new norfolk,-42.7826,147.0587,16.72,90,34,1.35,AU,1675176886
99,saldanha,-33.0117,17.9442,29.03,70,38,6.38,ZA,1675177158
100,norman wells,65.282,-126.8329,-24.98,77,75,5.66,CA,1675176930
101,asuncion nochixtlan,17.4667,-97.2333,13.88,53,0,1.45,MX,1675177161
102,port lincoln,-34.7333,135.8667,17.69,62,99,5.31,AU,1675176924
103,alice springs,-23.7,133.8833,23.75,94,100,0.0,AU,1675177162
104,morondava,-20.2833,44.2833,28.32,78,20,4.1,MG,1675177163
105,aklavik,68.2191,-135.0107,-35.33,99,69,0.4,CA,1675176998
106,lisakovsk,52.5369,62.4936,-15.67,86,23,3.32,KZ,1675177164
107,hastings,50.8552,0.5729,12.44,50,79,7.25,GB,1675177165
108,cape town,-33.9258,18.4232,30.23,43,0,6.17,ZA,1675176893
109,narsaq,60.9167,-46.05,-6.88,91,100,2.03,GL,1675176955
110,dakar,14.6937,-17.4441,32.49,61,2,7.78,SN,1675177167
111,ribeira grande,38.5167,-28.7,17.22,55,20,5.36,PT,1675176901
112,talnakh,69.4865,88.3972,-15.81,96,100,4.74,RU,1675176989
113,victoria,22.2855,114.1577,19.1,70,100,4.47,HK,1675176744
114,gazalkent,41.5581,69.7708,3.89,82,100,2.77,UZ,1675177169
115,safaga,26.7292,33.9365,20.32,33,1,7.21,EG,1675177169
116,great yarmouth,52.6083,1.7305,10.57,67,6,8.77,GB,1675177029
117,jamestown,42.097,-79.2353,-7.47,80,100,2.68,US,1675176885
118,chokurdakh,70.6333,147.9167,-12.37,95,100,3.35,RU,1675176897
119,kargasok,59.0556,80.8572,-16.25,98,94,2.68,RU,1675177171
120,jalu,29.0331,21.5482,16.39,39,84,6.05,LY,1675177067
121,teguldet,57.3064,88.1667,-15.56,100,100,1.81,RU,1675177172
122,bundaberg,-24.85,152.35,26.79,86,83,1.79,AU,1675177172
123,valparaiso,-33.0393,-71.6273,22.22,87,100,4.12,CL,1675176937
124,airai,-8.9266,125.4092,16.44,95,100,0.64,TL,1675176983
125,bengkulu,-3.8004,102.2655,25.23,90,100,2.53,ID,1675176876
126,dingle,10.9995,122.6711,23.64,94,75,4.05,PH,1675176880
127,pevek,69.7008,170.3133,-11.48,82,11,4.14,RU,1675176937
128,yerbogachen,61.2767,108.0108,-31.84,100,93,1.78,RU,1675177041
129,codrington,-38.2667,141.9667,12.82,80,18,2.82,AU,1675177079
130,saskylakh,71.9167,114.0833,-40.51,98,90,1.7,RU,1675176874
131,tagusao,9.1924,117.8141,25.24,87,100,4.17,PH,1675177174
132,corrente,-3.7367,-43.3394,30.64,62,16,0.85,BR,1675177174
133,chara,56.9064,118.2631,-23.54,73,84,1.77,RU,1675177175
134,hobyo,5.3505,48.5268,25.26,71,2,9.23,SO,1675177175
135,faya,18.3851,42.4509,20.06,56,25,3.25,SA,1675177176
136,kununurra,-15.7667,128.7333,25.99,94,75,2.06,AU,1675177176
137,souillac,-20.5167,57.5167,28.21,83,75,3.09,MU,1675177028
138,mahebourg,-20.4081,57.7,28.16,83,75,3.09,MU,1675176875
139,tautira,-17.7333,-149.15,26.7,79,31,6.69,PF,1675177177
140,hithadhoo,-0.6,73.0833,27.32,77,98,6.04,MV,1675176896
141,rocha,-34.4833,-54.3333,28.69,53,30,5.88,UY,1675176992
142,piranhas,-16.4269,-51.8222,28.05,71,100,1.87,BR,1675177178
143,barrow,71.2906,-156.7887,-21.99,71,0,10.8,US,1675176632
144,tarakan,3.3,117.6333,26.72,89,75,1.54,ID,1675176906
145,san quintin,30.4833,-115.95,10.69,75,53,0.9,MX,1675177024
146,butaritari,3.0707,172.7902,26.8,78,78,8.56,KI,1675176923
147,coihaique,-45.5752,-72.0662,13.97,47,0,2.06,CL,1675177074
148,ileza,61.0533,43.9002,-2.44,94,100,5.84,RU,1675177179
149,ilulissat,69.2167,-51.1,-9.99,85,75,9.26,GL,1675176881
150,ixtapa,20.7,-105.2,20.13,68,4,0.82,MX,1675177180
151,malajog,12.1106,124.4792,24.58,91,57,4.0,PH,1675177180
152,lyuban,52.7985,28.0048,0.34,92,100,4.77,BY,1675177181
153,santa cruz,-17.8,-63.1667,25.7,78,75,8.75,BO,1675176407
154,kavieng,-2.5744,150.7967,27.78,71,100,2.11,PG,1675176993
155,killybegs,54.6333,-8.45,7.84,75,100,10.76,IE,1675177181
156,sao jose da coroa grande,-8.8978,-35.1478,28.91,65,100,5.02,BR,1675177182
157,vanimo,-2.6741,141.3028,25.52,88,79,1.36,PG,1675177182
158,port macquarie,-31.4333,152.9167,19.94,89,82,2.95,AU,1675177183
159,gigmoto,13.7796,124.39,24.99,89,63,6.26,PH,1675177183
160,severo-kurilsk,50.6789,156.125,-6.38,66,54,3.95,RU,1675176948
161,porto novo,6.4965,2.6036,30.76,57,100,4.42,BJ,1675177009
162,havelock,34.8791,-76.9013,13.97,81,100,0.0,US,1675177184
163,kayan,16.9056,96.5631,26.08,58,12,3.68,MM,1675177184
164,paamiut,61.994,-49.6678,-11.71,77,100,4.13,GL,1675177066
165,vershino-darasunskiy,52.35,115.5167,-25.49,92,9,1.97,RU,1675177057
166,mungwi,-10.1732,31.3694,23.97,76,8,0.41,ZM,1675177185
167,acurenam,1.0322,10.6488,26.73,61,99,0.75,GQ,1675177185
168,beringovskiy,63.05,179.3167,-2.54,93,99,6.25,RU,1675177015
169,samarai,-10.6167,150.6667,27.32,82,52,3.17,PG,1675177186
170,la ronge,55.1001,-105.2842,-30.86,69,20,1.03,CA,1675177186
171,sitka,57.0531,-135.33,4.94,70,100,6.17,US,1675177009
172,avanigadda,16.0215,80.9181,25.19,69,100,3.97,IN,1675177187
173,tecolutla,20.4833,-97.0167,20.92,86,24,1.09,MX,1675177187
174,kahului,20.8947,-156.47,23.8,89,20,3.09,US,1675176992
175,paso de los toros,-32.8167,-56.5167,33.35,30,0,3.07,UY,1675177188
176,muros,42.7762,-9.0603,14.27,48,13,1.39,ES,1675177188
177,sur,22.5667,59.5289,20.82,59,0,3.8,OM,1675177189
178,lucea,18.451,-78.1736,28.25,67,61,9.47,JM,1675177189
179,newport,51.5877,-2.9984,11.36,68,18,5.63,GB,1675177189
180,gazli,40.1333,63.45,6.82,81,20,5.95,UZ,1675177190
181,lata,40.1629,-8.3327,13.84,36,0,1.79,PT,1675177061
182,ponta do sol,32.6667,-17.1,17.85,63,51,2.94,PT,1675177033
183,dikson,73.5069,80.5464,-18.75,91,100,4.25,RU,1675176942
184,diego de almagro,-26.3667,-70.05,24.69,29,9,3.59,CL,1675177191
185,camana,-16.6228,-72.7111,24.26,83,100,2.2,PE,1675177191
186,yuksekova,37.5736,44.2872,-1.14,93,75,1.03,TR,1675177192
187,tuktoyaktuk,69.4541,-133.0374,-37.0,67,0,2.57,CA,1675176895
188,yellowknife,62.456,-114.3525,-37.47,67,20,3.09,CA,1675176903
189,tiksi,71.6872,128.8694,-23.14,100,100,5.2,RU,1675176912
190,port elizabeth,-33.918,25.5701,25.17,85,20,10.29,ZA,1675176708
191,leshukonskoye,64.8989,45.7622,-2.39,93,100,5.33,RU,1675177193
192,hambantota,6.1241,81.1185,25.19,100,40,1.54,LK,1675177193
193,grand gaube,-20.0064,57.6608,28.22,83,100,3.17,MU,1675177059
194,halifax,44.6453,-63.5724,0.12,95,100,3.09,CA,1675176918
195,carutapera,-1.195,-46.02,29.71,63,72,2.75,BR,1675177194
196,sola,-13.8833,167.55,27.22,73,100,3.82,VU,1675177032
197,campbell river,50.0163,-125.2446,0.25,100,100,1.03,CA,1675177194
198,provideniya,64.3833,-173.3,-6.43,97,100,0.53,RU,1675177013
199,jaque,7.5175,-78.1703,28.2,59,22,1.72,PA,1675177195
200,mount isa,-20.7333,139.5,23.87,100,94,0.0,AU,1675176887
201,canico,32.6333,-16.85,17.35,75,40,4.63,PT,1675177195
202,san cristobal,7.7669,-72.225,20.1,61,84,0.94,VE,1675176891
203,kaitangata,-46.2817,169.8464,16.02,98,100,0.69,NZ,1675176878
204,atar,20.5169,-13.0499,27.16,12,16,2.39,MR,1675176878
205,san patricio,28.017,-97.5169,4.35,85,100,5.66,US,1675177018
206,martapura,-3.4167,114.85,23.99,97,100,0.42,ID,1675177010
207,ahipara,-35.1667,173.1667,18.95,96,77,2.73,NZ,1675177197
208,parintins,-2.6283,-56.7358,22.9,98,100,0.28,BR,1675177197
209,matay,28.419,30.7792,17.6,29,0,5.69,EG,1675177198
210,aswan,24.0934,32.907,21.5,17,29,6.29,EG,1675177198
211,laguna,38.421,-121.4238,5.07,73,0,3.09,US,1675177079
212,winnemucca,40.973,-117.7357,-9.0,75,6,1.37,US,1675176934
213,muli,2.9167,73.5667,26.93,72,82,4.3,MV,1675176951
214,kodiak,57.79,-152.4072,2.73,100,100,3.6,US,1675176920
215,fort wellington,6.4,-57.6,26.84,67,25,2.75,GY,1675177199
216,tazovskiy,67.4667,78.7,-27.21,100,29,2.69,RU,1675176955
217,okhotsk,59.3833,143.3,-18.09,97,100,4.82,RU,1675177200
218,thompson,55.7435,-97.8558,-35.91,68,0,1.03,CA,1675176899
219,tasiilaq,65.6145,-37.6368,-10.91,85,100,2.69,GL,1675177239
220,guantanamo,20.1444,-75.2092,25.26,52,94,4.67,CU,1675177240
221,rabo de peixe,37.8,-25.5833,14.73,67,20,4.12,PT,1675177242
222,asau,46.4333,26.4,1.51,91,95,0.94,RO,1675176891
223,puerto escondido,15.85,-97.0667,24.46,88,0,2.57,MX,1675177242
224,tilichiki,60.4667,166.1,-16.27,97,100,3.17,RU,1675177243
225,zhaotong,27.3167,103.7167,6.17,79,0,2.8,CN,1675177244
226,kutum,14.2,24.6667,30.62,8,27,5.13,SD,1675177245
227,rio gallegos,-51.6226,-69.2181,17.03,29,0,7.72,AR,1675176957
228,san-pedro,4.7485,-6.6363,29.61,65,88,4.27,CI,1675177246
229,leningradskiy,69.3833,178.4167,-16.58,94,76,2.94,RU,1675176942
230,prince rupert,54.3161,-130.3201,3.83,81,100,7.2,CA,1675177246
231,vadso,70.0744,29.7487,-0.91,100,75,4.12,NO,1675177247
232,comodoro rivadavia,-45.8667,-67.5,22.92,31,0,5.14,AR,1675177248
233,jiwani,25.05,61.7417,21.44,54,0,4.52,PK,1675177019
234,kiunga,-6.1219,141.2906,22.77,97,99,0.74,PG,1675177249
235,ekhabi,53.5102,142.9671,-26.52,95,40,3.39,RU,1675177249
236,boa vista,2.8197,-60.6733,29.99,48,0,4.12,BR,1675177126
237,mocajuba,-2.5842,-49.5072,30.22,62,44,1.49,BR,1675177250
238,sibu,2.3,111.8167,25.17,94,40,0.51,MY,1675177004
239,cairns,-16.9167,145.7667,26.7,97,100,2.06,AU,1675177251
240,sao filipe,14.8961,-24.4956,22.21,69,54,2.39,CV,1675176989
241,hammerfest,70.6634,23.6821,1.25,80,75,8.23,NO,1675177252
242,xinzhi,36.4989,111.7047,3.93,26,88,2.13,CN,1675177254
243,tanete,-3.9443,119.7848,24.08,97,100,1.52,ID,1675177254
244,srednekolymsk,67.45,153.6833,-22.19,96,99,5.1,RU,1675177255
245,suluq,31.6682,20.2521,15.27,51,19,8.84,LY,1675177255
246,katastarion,37.8333,20.7667,9.94,73,73,7.68,GR,1675177256
247,rosemount,44.7394,-93.1258,-18.88,78,0,1.54,US,1675177257
248,lebu,-37.6167,-73.65,16.03,60,1,8.55,CL,1675176949
249,bilma,18.6853,12.9164,26.12,11,100,6.2,NE,1675177006
250,sao bras de alportel,37.1531,-7.8875,13.38,51,0,6.17,PT,1675177196
251,passo fundo,-28.2628,-52.4067,25.14,61,40,2.06,BR,1675177064
252,ogaminana,7.5946,6.2248,38.34,15,1,1.22,NG,1675177258
253,itaituba,-4.2761,-55.9836,28.09,78,40,1.54,BR,1675177248
254,iwanai,42.9744,140.5089,-4.57,76,100,2.54,JP,1675177259
255,zalantun,48.0,122.7167,-11.8,95,100,2.59,CN,1675177260
256,kribi,2.95,9.9167,28.41,69,39,4.22,CM,1675177260
257,oxilithos,38.5833,24.1167,7.07,67,96,7.19,GR,1675177261
258,labuhan,-6.8844,112.2051,25.99,85,100,4.01,ID,1675176991
259,salalah,17.0151,54.0924,22.36,64,66,2.79,OM,1675177010
260,tarecuato,19.85,-102.4833,16.37,55,0,0.35,MX,1675177262
261,antibes,43.5624,7.1278,15.7,55,0,4.12,FR,1675177264
262,sisophon,13.5859,102.9737,24.82,46,75,0.63,KH,1675177265
263,daru,-9.0763,143.2092,25.79,90,91,2.58,PG,1675177266
264,derbent,42.0678,48.2899,5.85,94,100,2.1,RU,1675177269
265,igarka,67.4667,86.5833,-15.23,95,100,6.28,RU,1675177033
266,amapa,1.0,-52.0,27.2,76,83,1.3,BR,1675177271
267,lufilufi,-13.8745,-171.5986,22.88,74,98,5.07,WS,1675177273
268,abu dhabi,24.4667,54.3667,26.06,36,0,3.09,AE,1675177031
269,kuryk,43.2,51.65,3.69,51,68,4.75,KZ,1675177276
270,san luis,-33.295,-66.3356,31.75,34,16,1.8,AR,1675177279
271,belmonte,-15.8631,-38.8828,27.99,62,22,2.37,BR,1675176894
272,hun,29.1268,15.9477,14.8,22,2,6.6,LY,1675177282
273,katangli,51.7102,143.2326,-22.88,92,99,5.04,RU,1675177285
274,kieta,-6.2167,155.6333,26.14,83,95,1.9,PG,1675177074
275,aurillac,44.9167,2.45,5.94,74,100,4.63,FR,1675177287
276,tual,-5.6667,132.75,28.0,80,100,5.39,ID,1675176960
277,erdenet,49.0333,104.0833,-22.98,94,5,1.18,MN,1675177289
278,mocuba,-16.8392,36.9856,27.12,79,4,3.93,MZ,1675177290
279,aginskoye,51.1,114.53,-16.31,79,10,6.66,RU,1675177290
280,isangel,-19.55,169.2667,25.81,82,100,1.32,VU,1675176931
281,villa maria,-32.4075,-63.2402,31.01,51,0,2.98,AR,1675177039
282,waipawa,-41.4122,175.5153,15.97,91,100,2.79,NZ,1675177015
283,swanton,41.5887,-83.8911,-9.49,64,75,0.0,US,1675177292
284,lizzanello,40.3041,18.2225,11.04,46,40,8.75,IT,1675177293
285,mecca,21.4267,39.8261,27.39,56,100,7.57,SA,1675177293
286,aykhal,66.0,111.5,-36.47,100,42,2.27,RU,1675177032
287,haines junction,60.7522,-137.5108,-8.29,98,100,0.2,CA,1675177006
288,neka,36.6508,53.299,8.73,76,96,2.06,IR,1675177294
289,krasnoselkup,65.7,82.4667,-21.28,100,87,3.79,RU,1675177295
290,inhambane,-23.865,35.3833,26.7,67,61,5.54,MZ,1675177295
291,general roca,-39.0333,-67.5833,19.79,48,100,7.52,AR,1675177296
292,manzhouli,49.6,117.4333,-16.89,82,20,6.4,CN,1675177017
293,iaciara,-14.0958,-46.6317,30.25,48,0,0.36,BR,1675177297
294,te anau,-45.4167,167.7167,15.7,92,100,0.26,NZ,1675177012
295,batalha,-9.6778,-37.1247,31.47,46,97,4.88,BR,1675177297
296,margate,51.3813,1.3862,12.05,71,80,1.34,GB,1675176885
297,lodja,-3.4833,23.4333,27.39,66,66,0.9,CD,1675177298
298,skibotn,69.3913,20.2679,-4.49,95,96,2.03,NO,1675177299
299,casma,-41.0082,-73.1244,16.8,45,20,3.22,CL,1675177300
300,vredendal,-31.6683,18.5012,27.03,38,0,7.69,ZA,1675177300
301,havoysund,70.9963,24.6622,2.13,68,100,6.67,NO,1675177081
302,san antonio,29.4241,-98.4936,0.85,93,100,6.69,US,1675177220
303,heyang,26.1011,107.473,8.83,57,0,1.2,CN,1675177301
304,sungurlu,40.1675,34.3739,-0.44,95,92,1.5,TR,1675177301
305,pizarro,4.9533,-77.366,25.75,87,83,2.04,CO,1675177302
306,bitung,1.4451,125.1824,25.47,86,80,3.85,ID,1675177302
307,wanlaweyn,2.6185,44.8938,33.0,27,0,4.59,SO,1675177303
308,lompoc,34.6391,-120.4579,7.74,74,0,1.54,US,1675176726
309,kholodnyy,62.7167,147.95,-22.59,100,100,0.81,RU,1675177304
310,ruyigi,-3.45,30.3167,21.28,67,37,1.3,BI,1675177304
311,freeport,40.6576,-73.5832,2.92,85,100,3.6,US,1675177280
312,imeni poliny osipenko,52.4201,136.4853,-34.02,100,96,0.8,RU,1675177058
313,kokstad,-30.5472,29.4241,18.22,94,61,2.82,ZA,1675177145
314,lasa,46.6166,10.7002,5.76,67,26,3.15,IT,1675176954
315,port shepstone,-30.7414,30.455,24.98,83,63,8.72,ZA,1675177306
316,pangkalanbuun,-2.6833,111.6167,24.09,98,100,1.02,ID,1675176899
317,ilhabela,-23.7781,-45.3581,30.34,59,99,2.05,BR,1675177306
318,kuah,6.3265,99.8432,27.99,69,20,1.54,MY,1675177307
319,araouane,18.9048,-3.5265,25.0,6,21,5.12,ML,1675177307
320,sorland,67.667,12.6934,2.92,57,100,7.63,NO,1675177037
321,kualakapuas,-3.0091,114.3876,24.15,97,100,1.16,ID,1675177308
322,husavik,66.0449,-17.3389,-2.44,95,100,2.47,IS,1675177040
323,champerico,14.3,-91.9167,24.3,55,0,1.38,GT,1675177308
324,caohai,26.8661,104.2841,7.39,68,2,1.38,CN,1675177309
325,ponta delgada,37.7333,-25.6667,15.4,67,20,4.12,PT,1675177247
326,guerrero negro,27.9769,-114.0611,12.88,80,8,3.35,MX,1675176957
327,bandarbeyla,9.4942,50.8122,24.35,71,8,7.83,SO,1675177058
328,vostok,46.4856,135.8833,-22.69,97,90,2.11,RU,1675176990
329,takhtamygda,54.1,123.5667,-29.16,99,51,1.33,RU,1675177310
330,bourg-en-bresse,46.1667,5.1667,8.08,70,68,1.68,FR,1675177243
331,yulara,-25.2406,130.9889,27.7,27,95,5.91,AU,1675177056
332,lagoa,39.05,-27.9833,14.01,64,46,6.84,PT,1675176945
333,salta,-24.7859,-65.4117,26.43,70,40,1.03,AR,1675177311
334,ancud,-41.8697,-73.8203,15.56,51,0,2.9,CL,1675177312
335,egvekinot,66.3167,-179.1667,-10.32,96,100,2.56,RU,1675177312
336,sakakah,29.9697,40.2064,16.76,26,55,8.28,SA,1675177072
337,dunedin,-45.8742,170.5036,17.67,99,100,1.79,NZ,1675176863
338,saint george,37.1041,-113.5841,-6.67,68,0,2.06,US,1675176724
339,wanning,18.8003,110.3967,20.15,89,69,1.44,CN,1675177313
340,san andres,12.5847,-81.7006,28.01,65,75,6.69,CO,1675176962
341,linqiong,30.4159,103.4609,7.9,54,0,1.37,CN,1675177314
342,vila franca do campo,37.7167,-25.4333,15.23,65,97,4.99,PT,1675177086
343,vardo,70.3705,31.1107,0.99,86,75,7.2,NO,1675176955
344,ambilobe,-13.2,49.05,26.3,86,43,1.56,MG,1675177044
345,tromso,69.6496,18.957,-1.99,93,40,2.06,NO,1675177278
346,imst,47.2684,10.6698,-4.17,75,100,1.7,AT,1675177315
347,norsup,-16.0667,167.3833,26.2,80,99,1.55,VU,1675177316
348,tsevie,6.4261,1.2133,31.49,44,100,4.42,TG,1675177317
349,marystown,47.1666,-55.1483,0.16,68,95,4.25,CA,1675177317
350,nome,64.5011,-165.4064,-6.61,100,100,0.0,US,1675176619
351,hovd,48.0056,91.6419,-17.81,82,7,1.42,MN,1675176997
352,richards bay,-28.783,32.0377,26.05,81,54,6.54,ZA,1675177319
353,palafrugell,41.9174,3.1631,15.42,42,2,1.34,ES,1675177319
354,yar-sale,66.8333,70.8333,-16.07,93,97,5.02,RU,1675177320
355,edd,13.9297,41.6925,29.04,51,11,11.9,ER,1675177320
356,alappuzha,9.49,76.3264,25.7,84,100,3.93,IN,1675177321
357,robe,-37.1833,139.75,17.54,64,98,4.75,AU,1675177322
358,montepuez,-13.1256,38.9997,23.87,92,100,1.97,MZ,1675177323
359,sar-e pul,35.8333,66.1667,2.34,70,99,4.81,AF,1675177325
360,namibe,-15.1961,12.1522,22.88,77,100,1.98,AO,1675176928
361,cutervo,-6.379,-78.8157,15.59,67,94,1.64,PE,1675177329
362,jacqueville,5.2052,-4.4146,27.34,74,95,5.27,CI,1675177330
363,olinda,-8.0089,-34.8553,29.85,62,75,3.6,BR,1675176943
364,markala,13.7021,-6.0659,31.84,5,27,3.85,ML,1675177331
365,terre-de-bas,15.8501,-61.6442,27.73,69,13,5.77,GP,1675177333
366,san matias,-16.3667,-58.4,30.73,60,95,3.98,BO,1675177334
367,sabzevar,36.2126,57.6819,7.6,76,100,3.09,IR,1675177335
368,victor harbor,-35.5667,138.6167,17.78,72,21,3.09,AU,1675177337
369,narrabri,-30.3167,149.7833,20.29,96,29,1.76,AU,1675177338
370,mokrousovo,55.8103,66.7653,-10.33,92,100,3.72,RU,1675177339
371,general cepeda,25.3833,-101.45,18.37,73,7,1.82,MX,1675177173
372,balkhash,46.844,74.9804,-7.34,90,100,1.59,KZ,1675177345
373,kagal,16.5833,74.3167,25.06,35,11,2.34,IN,1675177346
374,preobrazheniye,42.9019,133.9064,-6.68,68,99,2.22,RU,1675177347
375,ugoofaaru,5.6667,73.0,27.11,75,71,5.14,MV,1675177348
376,bongandanga,1.5,21.05,34.19,33,63,2.2,CD,1675177348
377,maniitsoq,65.4167,-52.9,-13.82,79,100,5.05,GL,1675177349
378,nova esperanca,4.438,-61.1151,28.35,46,15,0.48,BR,1675177349
379,zarubino,42.63,131.0922,-8.03,90,100,2.99,RU,1675177350
380,mortka,59.3322,66.0214,-4.67,87,98,4.45,RU,1675177350
381,pitkyaranta,61.5734,31.4792,-3.73,90,100,6.02,RU,1675177351
382,qinzhou,21.95,108.6167,18.3,82,99,4.14,CN,1675177351
383,jutai,-5.1833,-68.9,28.05,71,91,1.19,BR,1675177352
384,jiuquan,39.7432,98.5174,-6.96,46,3,1.3,CN,1675177353
385,nador,35.174,-2.9287,18.04,58,0,2.57,MA,1675177309
386,ust-maya,60.4167,134.5333,-36.26,97,100,1.41,RU,1675177354
387,yekimovichi,54.1129,33.2965,0.07,97,100,4.42,RU,1675177354
388,camacha,33.0833,-16.3333,15.68,51,40,7.72,PT,1675177355
389,zanjan,36.6736,48.4787,-0.17,100,100,2.06,IR,1675177356
390,broome,42.2506,-75.833,-2.99,69,0,6.17,US,1675176954
391,luderitz,-26.6481,15.1594,21.42,61,4,5.38,NA,1675176945
392,sinnamary,5.3833,-52.95,26.16,77,21,2.47,GF,1675177038
393,kollam,8.8833,76.6,25.27,84,100,2.31,IN,1675177357
394,kloulklubed,7.0419,134.2556,27.83,80,98,9.04,PW,1675177043
395,punta gorda,26.9298,-82.0454,25.0,84,0,0.45,US,1675177355
396,lagos,6.5833,3.75,33.18,52,32,4.43,NG,1675177098
397,vilyuysk,63.7553,121.6247,-38.55,99,95,2.79,RU,1675177358
398,half moon bay,37.4636,-122.4286,7.08,38,0,1.54,US,1675177052
399,ishigaki,24.3448,124.1572,19.07,68,75,4.63,JP,1675177358
400,lusambo,-4.9667,23.45,27.9,63,87,2.27,CD,1675177359
401,portland,45.5234,-122.6762,-0.21,73,100,2.06,US,1675176712
402,high level,58.5169,-117.136,-18.94,92,100,1.03,CA,1675177247
403,buala,-8.145,159.5921,26.62,77,100,1.38,SB,1675177038
404,port augusta,-32.5,137.7667,20.03,65,0,8.68,AU,1675177001
405,dickinson,29.4608,-95.0513,6.64,94,100,5.14,US,1675177350
406,nemuro,43.3236,145.575,-6.39,72,95,2.43,JP,1675177360
407,gornopravdinsk,60.05,69.9,-10.65,97,90,3.16,RU,1675177361
408,waingapu,-9.6567,120.2641,26.77,81,100,2.53,ID,1675177361
409,tessalit,20.1986,1.0114,25.23,5,54,3.97,ML,1675177362
410,ostrovnoy,68.0531,39.5131,-2.92,94,100,3.44,RU,1675177362
411,itoman,26.1247,127.6694,15.01,72,75,1.03,JP,1675177363
412,fortuna,40.5982,-124.1573,5.19,74,0,5.66,US,1675177032
413,praia,14.9215,-23.5087,25.3,57,20,8.75,CV,1675177363
414,coquimbo,-29.9533,-71.3436,19.85,72,100,2.57,CL,1675176950
415,garowe,8.4054,48.4845,27.14,30,0,4.57,SO,1675176877
416,boyolangu,-8.1181,111.8935,24.99,87,100,0.99,ID,1675177364
417,novikovo,51.1537,37.8879,-2.32,70,10,2.96,RU,1675177365
418,puerto madryn,-42.7692,-65.0385,18.24,46,0,5.6,AR,1675177365
419,izvoru crisului,46.8333,23.1,0.96,86,95,2.19,RO,1675177366
420,tucuma,-0.1833,-50.05,28.02,73,20,1.37,BR,1675177366
421,tabas,33.5959,56.9244,13.12,67,100,3.09,IR,1675177367
422,carson city,39.1638,-119.7674,-11.25,85,0,0.0,US,1675176896
423,snezhnogorsk,69.1933,33.2531,-10.12,97,100,1.26,RU,1675177367
424,muravlenko,63.7898,74.523,-19.31,99,56,4.53,RU,1675177368
425,benguela,-12.5763,13.4055,28.09,69,90,4.76,AO,1675177368
426,alofi,-19.0595,-169.9187,23.94,94,100,4.63,NU,1675176944
427,mananara,-16.1667,49.7667,26.75,85,14,2.33,MG,1675177369
428,acapulco,16.8634,-99.8901,24.9,78,0,3.09,MX,1675177370
429,yola,9.2,12.4833,38.9,13,0,3.09,NG,1675177371
430,lakes entrance,-37.8811,147.981,17.87,85,43,1.23,AU,1675177371
431,tarnogskiy gorodok,60.4997,43.5761,-1.66,90,100,5.92,RU,1675177372
432,manuk mangkaw,4.8,119.85,26.88,80,99,3.92,PH,1675177372
433,kashi,39.4547,75.9797,-3.44,74,75,1.0,CN,1675177373
434,westport,41.1415,-73.3579,1.9,83,100,2.57,US,1675177060
435,orange,33.7,-117.7675,11.94,35,0,4.63,US,1675177373
436,paranaiba,-19.6772,-51.1908,26.7,75,99,0.89,BR,1675177374
437,bonnyville,54.2668,-110.735,-15.38,100,84,0.92,CA,1675177243
438,kathmandu,27.7167,85.3167,15.12,55,20,0.0,NP,1675176743
439,kawalu,-7.3817,108.2082,23.47,94,100,0.6,ID,1675177008
440,san salvador,13.6894,-89.1872,26.13,70,5,0.45,SV,1675177266
441,goderich,43.7501,-81.7165,-6.72,67,100,3.09,CA,1675176824
442,lixourion,38.2019,20.4314,11.0,70,79,10.16,GR,1675177375
443,gritsovskiy,54.1376,38.1604,-3.37,92,99,5.48,RU,1675177375
444,manokwari,-0.8667,134.0833,25.79,80,91,1.52,ID,1675177376
445,pisco,-13.7,-76.2167,25.03,78,99,1.54,PE,1675177377
446,sassandra,4.95,-6.0833,29.67,63,90,3.8,CI,1675177377
447,general elizardo aquino,-24.4333,-56.7,26.05,87,67,1.0,PY,1675177377
448,mokrous,51.2333,47.5167,-5.14,84,86,3.88,RU,1675177378
449,adrar,20.5022,-10.0711,24.12,8,10,3.25,MR,1675177378
450,baraboo,43.4711,-89.7443,-18.88,74,0,3.6,US,1675177099
451,kaspiyskiy,45.3929,47.3707,-0.59,83,38,4.51,RU,1675177379
452,ahuimanu,21.4447,-157.8378,21.76,95,20,0.89,US,1675176930
453,honningsvag,70.9821,25.9704,1.86,75,40,6.69,NO,1675177380
454,ouagadougou,12.3642,-1.5383,33.07,6,0,2.57,BF,1675177380
455,gerede,40.8008,32.1969,-4.53,87,81,2.01,TR,1675177381
456,umba,66.6871,34.3429,-4.86,93,100,4.98,RU,1675177381
457,northport,33.229,-87.5772,15.04,94,100,4.63,US,1675177371
458,lingdong,46.5669,131.1453,-16.76,88,100,1.31,CN,1675177385
459,gorontalo,0.5412,123.0595,23.71,95,80,1.78,ID,1675177388
460,lalgudi,10.8667,78.8333,26.18,78,75,2.57,IN,1675177239
461,biltine,14.5333,20.9167,36.76,7,5,3.94,TD,1675177390
462,kibaya,-5.3,36.5667,18.76,76,85,1.54,TZ,1675177391
463,bud,39.447,-86.1758,-6.81,78,100,3.0,US,1675177395
464,cachoeirinha,-29.9511,-51.0939,32.16,59,20,3.09,BR,1675177099
465,cesme,38.3228,26.3064,8.84,66,20,7.2,TR,1675177397
466,farah,32.5,62.5,10.5,39,1,1.37,AF,1675177397
467,humberto de campos,-2.5983,-43.4611,29.34,70,36,2.71,BR,1675177398
468,vitim,59.4511,112.5578,-16.56,96,100,3.62,RU,1675177399
469,la cruz,23.9167,-106.9,20.11,40,46,0.79,MX,1675177400
470,hirara,24.8,125.2833,19.98,62,0,6.63,JP,1675177023
471,mayo,38.8876,-76.5119,6.19,87,100,3.6,US,1675176973
472,odweyne,9.4092,45.064,23.99,24,6,5.12,SO,1675177092
473,novopavlovka,51.2172,109.2091,-23.31,100,98,1.26,RU,1675177402
474,almaznyy,48.0448,40.045,1.06,98,100,0.32,RU,1675177404
475,perth,-31.9333,115.8333,25.1,54,0,9.26,AU,1675177284
476,tahta,26.7693,31.5021,17.79,28,0,6.45,EG,1675177407
477,causapscal,48.3542,-67.227,-13.0,92,100,0.92,CA,1675177408
478,christchurch,-43.5333,172.6333,19.39,88,100,5.14,NZ,1675176910
479,mandalgovi,45.7625,106.2708,-15.63,73,4,1.46,MN,1675176904
480,tandil,-37.3217,-59.1332,28.71,31,0,3.19,AR,1675177205
481,nalut,30.3333,10.85,12.4,28,0,3.59,LY,1675177409
482,zhigansk,66.7697,123.3711,-33.72,91,100,3.4,RU,1675177066
483,tres picos,15.8667,-93.5333,27.47,56,11,1.32,MX,1675177410
484,whitianga,-36.8333,175.7,19.75,95,100,9.09,NZ,1675177410
485,necochea,-38.5473,-58.7368,26.33,60,49,5.36,AR,1675177080
486,shvartsevskiy,54.0961,37.9917,-3.25,92,99,5.41,RU,1675177411
487,lemoore,36.3008,-119.7829,1.3,80,0,1.54,US,1675177233
488,meulaboh,4.1363,96.1285,24.58,89,100,0.4,ID,1675177412
489,progreso,21.2833,-89.6667,25.06,75,6,4.45,MX,1675177412
490,shakawe,-18.3667,21.85,29.32,43,94,4.0,BW,1675177413
491,cabo san lucas,22.8909,-109.9124,18.61,53,99,3.96,MX,1675176827
492,yarada,17.65,83.2667,26.18,65,75,2.06,IN,1675177413
493,atyrau,47.1167,51.8833,-0.99,43,0,5.0,KZ,1675177414
494,mubende,0.5606,31.39,28.51,26,81,0.76,UG,1675177415
495,shenzhen,22.5455,114.0683,19.04,84,100,2.21,CN,1675177317
496,mana,5.6592,-53.7767,26.61,73,26,3.02,GF,1675177415
497,gamboma,-1.8764,15.8644,33.75,33,88,2.25,CG,1675177416
498,carlyle,38.6103,-89.3726,-9.13,64,98,1.79,US,1675177416
499,salinas,36.6777,-121.6555,8.06,71,0,4.63,US,1675177267
500,bara,10.3744,10.7288,36.88,7,5,4.59,NG,1675177367
501,nelson bay,-32.7167,152.15,22.78,95,47,5.81,AU,1675177094
502,san policarpo,12.1791,125.5072,25.94,87,15,6.99,PH,1675177417
503,pitsunda,43.1592,40.3378,9.1,71,100,4.3,GE,1675177418
504,orbetello,42.4408,11.2196,11.57,64,0,2.44,IT,1675177418
505,saint-leu,-21.15,55.2833,28.48,80,94,5.63,RE,1675177419
506,utete,-7.986,38.758,29.45,65,83,3.55,TZ,1675177419
507,dajabon,19.5488,-71.7083,28.85,43,51,6.83,DO,1675177420
508,tamiahua,21.2667,-97.45,22.94,86,5,1.49,MX,1675177420
509,uhlove,44.8215,33.6045,5.01,66,100,4.78,UA,1675177420
510,manaus,-3.1019,-60.025,26.28,89,75,3.09,BR,1675177210
511,cristalina,-16.7686,-47.6136,24.44,59,60,3.46,BR,1675177421
512,concepcion del oro,24.6333,-101.4167,11.15,79,8,3.35,MX,1675177421
513,bairiki,1.3292,172.9752,27.0,89,20,4.12,KI,1675177422
514,srandakan,-7.9386,110.2506,25.31,87,100,1.89,ID,1675177423
515,alyangula,-13.8483,136.4192,28.41,81,94,5.03,AU,1675177015
516,abnub,27.2696,31.1511,17.45,30,0,6.17,EG,1675177423
517,puerto baquerizo moreno,-0.9,-89.6,25.55,89,40,1.03,EC,1675177424
518,gandajika,-6.75,23.95,28.3,64,11,0.94,CD,1675177424
519,dalbandin,28.8947,64.4101,15.76,26,0,2.5,PK,1675177424
520,whitehorse,60.7161,-135.0538,-8.28,85,100,3.09,CA,1675177252
521,batagay,67.6333,134.6333,-30.7,99,100,1.16,RU,1675177425
522,chernushka,56.5072,56.0766,-5.62,94,100,6.92,RU,1675177425
523,monopoli,40.9559,17.2896,11.54,52,2,11.17,IT,1675177426
524,yingcheng,30.95,113.55,11.82,34,0,2.56,CN,1675176934
525,sao joao da barra,-21.6403,-41.0511,31.05,76,97,7.0,BR,1675177427
526,la sarre,48.8002,-79.1996,-20.71,89,17,4.14,CA,1675177427
527,abha,18.2164,42.5053,19.9,67,20,3.09,SA,1675177428
528,cockburn town,21.4612,-71.1419,25.98,61,40,6.17,TC,1675177428
529,chippewa falls,44.9369,-91.3929,-20.01,79,0,2.57,US,1675177429
530,igrim,63.1906,64.4162,-10.83,93,100,4.11,RU,1675177429
531,sawakin,19.1059,37.3321,26.47,78,90,4.96,SD,1675177430
532,port-gentil,-0.7193,8.7815,29.98,70,20,3.09,GA,1675177430
533,katsuura,35.1333,140.3,5.24,64,98,1.85,JP,1675176939
534,dicabisagan,17.0818,122.4157,21.57,80,78,0.97,PH,1675177431
535,nuevitas,21.5453,-77.2644,27.37,60,99,6.32,CU,1675176929
536,vidim,56.4088,103.1106,-25.04,100,100,1.62,RU,1675177432
537,nanortalik,60.1432,-45.2371,-5.89,76,100,0.23,GL,1675177087
538,haimen,23.1935,116.6142,14.94,69,100,1.74,CN,1675177433
539,kambove,-10.8764,26.5969,21.57,74,73,1.14,CD,1675177433
540,lerwick,60.1545,-1.1494,7.0,78,65,15.32,GB,1675177433
541,itarema,-2.9248,-39.9167,29.76,61,89,7.06,BR,1675176929
542,monteagudo,-19.8167,-63.9833,24.09,81,100,1.45,BO,1675177434
543,soyo,-6.1349,12.3689,28.48,67,34,4.42,AO,1675176944
